{"backup":{"assets":{"carousel":{"first_image":{"asset_url":"./assets/carousel/first_image.jpg","description":"A test image"}},"categories":{"Meat":{"items":"NO_ITEMS_ADDED_YET"},"Miscellaneous":"NO_ITEMS_ADDED_YET"},"hours":[{"hours":"10:00AM - 09:00PM","name":"Monday"},{"hours":"10:00AM - 09:00PM","name":"Tuesday"},{"hours":"10:00AM - 09:00PM","name":"Wednesday"},{"hours":"10:00AM - 09:00PM","name":"Thursday"},{"hours":"10:00AM - 01:00PM, 02:00PM - 09:00PM","name":"Friday"},{"hours":"10:00AM - 09:00PM","name":"Saturday"},{"hours":"10:00AM - 09:00PM","name":"Sunday"}]}},"carousel":[{"info":{"image_name":"carousel image 1","description":""},"path":"../../assets/img/img1.jpg","root":"../../www/"},{"info":{"image_name":"carousel image 2","description":""},"path":"../../assets/img/img2.jpg","root":"../../www/"},{"info":{"image_name":"carousel image 3","description":""},"path":"../../assets/img/img3.jpg","root":"../../www/"},{"info":{"image_name":"carousel image 4","description":""},"path":"../../assets/img/img4.jpg","root":"../../www/"}],"hours":[{"name":"Monday","hours":"10:00AM - 09:00PM"},{"name":"Tuesday","hours":"10:00AM - 09:00PM"},{"name":"Wednesday","hours":"10:00AM - 09:00PM"},{"name":"Thursday","hours":"10:00AM - 09:00PM"},{"name":"Friday","hours":"10:00AM - 01:00PM, 02:00PM - 09:00PM"},{"name":"Saturday","hours":"10:00AM - 09:00PM"},{"name":"Sunday","hours":"10:00AM - 09:00PM"}],"items":[{"itemInfo":{"item_name":"Chicken","price":4.99,"unit":"kg","description":"Fresh chicken from the farms","sale_information":"","categories":["Meat","Bird Meat"]},"fileInfo":{"path":"../../assets/img/img1.jpg"},"root":"../../www"},{"itemInfo":{"item_name":"Duck","price":5.99,"unit":"kg","description":"Fresh duck","sale_information":"","categories":["Meat","Bird Meat"]},"fileInfo":{"path":"../../assets/img/img1.jpg"},"root":"../../www"}],"test":{"test_name":"pushAssetInfoTest","test_data":"data"}}